id,name,sponsor,type,zip,latitude,longitude,registrationDate
0,Root,,Root,15301,40.153565,-80.253411,2020-01-06
1,Wilber Woodson,0,Ambassador,11933,40.942231,-72.765594,2020-01-12
2,Rosaria Rock,0,Ambassador,87535,35.528662,-105.747752,2020-01-28
3,Inger Ikner,0,Ambassador,94086,37.371647,-122.023134,2020-01-02
4,Greta Workman,0,Ambassador,29565,34.358052,-79.499289,2020-01-03
5,Kevin Van Gundy,4,Ambassador,54519,46.050772,-89.262739,2020-01-08
6,Michael Hunger,1,Ambassador,20612,38.50506,-76.67721,2020-01-07
7,Bryce Merkl Sasaki,2,Ambassador,85711,32.215235,-110.883394,2020-01-28
8,Nicole White,3,Ambassador,75974,31.958364,-94.239838,2020-01-06
9,Elsy Eckhardt,4,Ambassador,6355,41.364965,-71.976098,2020-01-12
10,Loreta Larrimore,4,Ambassador,89008,37.286087,-114.513105,2020-01-28
11,Aliza Albrecht,4,Ambassador,30055,33.497411,-83.749784,2020-01-18
12,Sharyn Santini,4,Ambassador,31624,31.296189,-82.730338,2020-01-03
13,Eugenie Elling,1,Ambassador,32137,29.581521,-81.21819,2020-01-12
14,Kristofer Kirshner,2,Ambassador,78753,30.382018,-97.673641,2020-01-24
15,Irving Izzard,3,Ambassador,57449,45.737408,-98.176157,2020-01-16
16,Elina Enfinger,2,Ambassador,39562,30.546682,-88.489452,2020-01-25
17,Max Moschella,1,Ambassador,62401,39.118715,-88.562384,2020-01-29
18,Elena Elwood,4,Ambassador,55038,45.174141,-92.980843,2020-01-28
19,Jeanmarie Jaffe,1,Ambassador,64401,39.633389,-94.715455,2020-01-10
20,Brianne Buelow,8,Ambassador,65771,36.772465,-93.206417,2020-01-31
21,Wanda Wrinkle,11,Ambassador,64631,39.82425,-92.866091,2020-01-17
22,Jeffery Jackman,14,Ambassador,29844,33.769606,-82.241925,2020-01-09
23,Alonzo Alaniz,11,Ambassador,96126,39.529719,-120.454168,2020-01-18
24,Willy Wickert,8,Ambassador,98860,47.461956,-119.200475,2020-01-10
25,Maud Maclachlan,6,Ambassador,75486,33.745236,-95.744327,2020-01-08
26,Tarsha Teeter,5,Ambassador,43333,40.443022,-83.924616,2020-01-13
27,Maureen Morrissey,11,Ambassador,4090,43.331432,-70.645586,2020-01-14
28,Albert Adamczyk,9,Ambassador,98908,46.615206,-120.724113,2020-01-15
29,Niki Neidig,9,Ambassador,44675,40.502358,-81.253774,2020-01-09
30,Deedra Disandro,16,Ambassador,5491,44.111961,-73.310796,2020-01-24
31,Melynda Mehl,14,Ambassador,65657,36.838288,-93.007588,2020-01-18
32,Hans Hornberger,17,Ambassador,35586,33.8779,-88.134075,2020-01-10
33,Corrie Calabrese,9,Ambassador,38821,33.977521,-88.436749,2020-01-10
34,Max Demarzi,19,Ambassador,19437,40.182414,-75.25858,2020-01-28
35,Arletha Azevedo,10,Ambassador,98632,46.209509,-123.056153,2020-01-20
36,Berta Burchill,9,Ambassador,19363,39.79056,-75.968479,2020-01-27
37,Alfred Arcuri,5,Ambassador,19611,40.324674,-75.942857,2020-01-04
38,Claretta Corrales,19,Ambassador,7801,40.917192,-74.554744,2020-01-18
39,Tia Twersky,10,Ambassador,30410,32.188589,-82.51347,2020-01-31
40,Sharell Sollers,6,Ambassador,10591,41.090097,-73.841014,2020-01-19
41,Catrice Crays,17,Ambassador,85627,32.007788,-110.235535,2020-01-18
42,Dina Dreher,18,Ambassador,23831,37.346253,-77.450566,2020-01-05
43,Branda Beauchamp,11,Ambassador,24574,37.57615,-79.253367,2020-01-06
44,Pennie Profit,19,Ambassador,38841,34.352581,-89.015298,2020-01-12
45,Hank Taylor,17,Ambassador,19123,39.964489,-75.145802,2020-01-11
46,Bethanie Bober,13,Ambassador,53916,43.456479,-88.85417,2020-01-08
47,Barney Brode,14,Ambassador,45146,39.314119,-83.804201,2020-01-26
48,Pat Pless,18,Ambassador,57779,44.563773,-103.755322,2020-01-25
49,Anastasia Asberry,10,Ambassador,77979,28.609718,-96.609368,2020-01-08
50,Emmett Eugene,13,Ambassador,12884,43.088396,-73.591291,2020-01-01
51,Vicky Vivian,40,Ambassador,35173,33.655233,-86.56324,2020-01-21
52,Zoe Zenz,48,Ambassador,52659,41.129203,-91.441022,2020-01-27
53,Sunshine Stobaugh,35,Ambassador,80227,39.666287,-105.089746,2020-01-13
54,Kemberly Knisley,32,Ambassador,65766,36.536052,-92.268646,2020-01-12
55,Jackeline Jong,30,Ambassador,95357,37.671153,-120.886268,2020-01-04
56,Katia Kohout,29,Ambassador,92563,33.580016,-117.14736,2020-01-31
57,Lupe Levar,29,Ambassador,23395,37.976304,-75.46059,2020-01-27
58,Marcel Martir,41,Ambassador,28430,34.303437,-78.945367,2020-01-27
59,Trisha Tabron,30,Ambassador,52169,42.860729,-91.663085,2020-01-06
60,Sabina Shriner,33,Ambassador,75117,32.715013,-95.854461,2020-01-02
61,Raphael Roots,29,Ambassador,17113,40.225984,-76.827994,2020-01-11
62,May Michels,32,Ambassador,41612,37.354326,-82.723004,2020-01-18
63,Adina Ausmus,38,Ambassador,87554,36.482898,-106.01867,2020-01-16
64,Darci Diggins,41,Ambassador,38764,33.780114,-90.866202,2020-01-02
65,Carri Colas,40,Ambassador,99648,55.911354,-159.16883,2020-01-29
66,Claudine Carrow,28,Ambassador,55906,44.0999,-92.408157,2020-01-24
67,Casimira Clyburn,48,Ambassador,67840,37.057346,-100.043728,2020-01-09
68,Quyen Quinones,28,Ambassador,95355,37.672906,-120.946594,2020-01-07
69,Basilia Bobadilla,47,Ambassador,21631,38.582391,-75.938981,2020-01-07
70,Jamika Jorden,36,Ambassador,56522,46.131926,-96.379386,2020-01-23
71,Ilene Isenberg,39,Customer,34667,28.39142,-82.662783,2020-01-03
72,Ernestina Enoch,28,Customer,52166,43.065843,-91.93329,2020-01-27
73,Alexa Abila,46,Customer,75115,32.599427,-96.864075,2020-01-26
74,Veronique Vanasse,30,Customer,4613,44.376983,-68.029882,2020-01-22
75,Lorrine Lowell,42,Customer,95549,40.666676,-123.908382,2020-01-14
76,Loretta Linehan,40,Customer,76017,32.662513,-97.164024,2020-01-29
77,Len Loar,37,Customer,37208,36.177714,-86.808023,2020-01-30
78,Fumiko Fairfield,44,Customer,62532,39.763389,-88.989247,2020-01-02
79,Alonzo Astin,30,Customer,97886,45.802308,-118.27241,2020-01-13
80,Janyce Jarrells,32,Customer,28617,36.480702,-81.361979,2020-01-23
81,Janay Jonason,40,Customer,71722,33.721791,-93.174681,2020-01-31
82,Geri Garret,38,Customer,52307,41.79309,-91.898761,2020-01-07
83,Dario Derrico,32,Customer,55904,43.95331,-92.401387,2020-01-10
84,Tami Toppin,40,Customer,68370,40.137925,-97.539899,2020-01-27
85,Rickey Ryles,41,Customer,46033,39.979283,-86.085557,2020-01-14
86,Lenny Lago,30,Customer,12801,43.31116,-73.645286,2020-01-07
87,Darnell Doering,28,Customer,10988,41.302081,-74.548556,2020-01-26
88,Cathryn Cascio,26,Customer,56243,45.170236,-94.686485,2020-01-06
89,Isidra Islas,45,Customer,36009,31.594781,-86.301377,2020-01-27
90,Ray Ravenell,47,Customer,44092,41.599909,-81.468699,2020-01-20
91,Lashanda Loeb,38,Customer,62326,40.416736,-90.809095,2020-01-19
92,Margareta Meli,35,Customer,84780,37.125838,-113.494229,2020-01-20
93,Valene Vannest,35,Customer,56658,48.081884,-93.834648,2020-01-04
94,Mandi Marton,30,Customer,6063,41.925197,-72.971286,2020-01-03
95,Breana Beaudoin,41,Customer,98935,46.132575,-120.086236,2020-01-07
96,Rudolf Robuck,26,Customer,54870,45.70926,-91.775273,2020-01-30
97,Tarsha Thibeau,46,Customer,59044,45.630132,-108.728496,2020-01-09
98,Tobi Trieu,44,Customer,97630,42.331353,-120.367452,2020-01-03
99,Norbert Nolte,32,Customer,24401,38.134387,-79.085564,2020-01-18
100,Jessika Judah,46,Customer,94706,37.889704,-122.295531,2020-01-06
101,Jonathon Jacobo,30,Customer,47568,38.808023,-87.246084,2020-01-24
102,Trula Tobler,33,Customer,54754,44.427159,-90.753321,2020-01-05
103,Clarence Chalker,47,Customer,77386,30.100262,-95.356488,2020-01-05
104,Palma Porterfield,29,Customer,7607,40.902885,-74.063457,2020-01-12
105,Felisa Foland,42,Customer,87037,36.167594,-107.763557,2020-01-21
106,Autumn Amore,47,Customer,39191,31.711309,-90.424334,2020-01-24
107,Aurore Atnip,29,Customer,39581,30.357101,-88.489323,2020-01-29
108,Willis Wakeman,36,Customer,24011,37.27085,-79.94149,2020-01-27
109,Marvella Mcfarlin,29,Customer,63379,39.001027,-90.995571,2020-01-29
110,Shawanna Starks,38,Customer,80233,39.899671,-104.946561,2020-01-29
111,Christia Colligan,36,Customer,26412,38.937198,-80.667711,2020-01-02
112,Mirian Mccaskill,35,Customer,32801,28.541769,-81.374357,2020-01-01
113,Dustin Darrigo,46,Customer,39823,31.333568,-84.947033,2020-01-28
114,Bettie Bradburn,43,Customer,79108,35.534173,-102.026668,2020-01-04
115,Voncile Vanetten,37,Customer,60012,42.272533,-88.314027,2020-01-13
116,Alonso Ahart,41,Customer,77384,30.233846,-95.49577,2020-01-18
117,Harold Hogsett,47,Customer,7605,40.863391,-73.988466,2020-01-02
118,Fernando Fremont,43,Customer,32920,28.396166,-80.614981,2020-01-08
119,Sharee Spina,28,Customer,72015,34.485899,-92.585099,2020-01-31
120,Mitsuko Mcghie,35,Customer,46936,40.484302,-85.927782,2020-01-21
121,Mildred Mertes,38,Customer,62311,40.209847,-90.930892,2020-01-14
122,Andre Arnett,43,Customer,89403,39.22719,-119.475593,2020-01-01
123,Veola Vazquez,40,Customer,71245,32.534103,-92.726168,2020-01-21
124,Raisa Rogue,28,Customer,24520,36.586589,-79.029748,2020-01-23
125,Toni Tope,39,Customer,47859,39.88184,-87.172196,2020-01-14
126,Della Damiano,36,Customer,30178,34.095453,-84.971074,2020-01-15
127,Bethel Balsley,39,Customer,85254,33.615485,-111.952235,2020-01-31
128,Angelia Ahumada,37,Customer,99748,64.344035,-158.773307,2020-01-04
129,Jerrie Jimenes,44,Customer,10801,40.91757,-73.784858,2020-01-21
130,Deedee Dave,35,Customer,43616,41.656295,-83.399565,2020-01-29
131,Stasia Stamant,46,Customer,26292,39.141915,-79.533672,2020-01-02
132,Rey Roloff,28,Customer,34238,27.235792,-82.470536,2020-01-14
133,Lyman Lade,38,Customer,78608,30.936006,-97.934579,2020-01-18
134,Annelle Athey,38,Customer,20770,39.002985,-76.879165,2020-01-08
135,Darcel Dawe,34,Customer,95988,39.491654,-122.26208,2020-01-17
136,Kristi Kyllonen,27,Customer,22847,38.730637,-78.717385,2020-01-22
137,Ivey Inskeep,46,Customer,62573,39.945409,-89.074133,2020-01-24
138,Wilhelmina Wolken,32,Customer,78164,28.98256,-97.520734,2020-01-06
139,Shavon Strouse,39,Customer,58463,47.491985,-100.473402,2020-01-10
140,Barney Brim,39,Customer,77093,29.863156,-95.341927,2020-01-14
141,Fallon Fagundes,28,Customer,38042,35.145159,-89.137403,2020-01-07
142,Tonisha Trumbull,43,Customer,55951,43.529233,-92.482488,2020-01-04
143,Aleshia Amsler,28,Customer,50316,41.608629,-93.599579,2020-01-10
144,Marianne Macaulay,44,Customer,75644,32.791213,-94.999846,2020-01-16
145,Kimbra Kral,42,Customer,56211,45.574195,-96.679838,2020-01-30
146,Alfonzo Alleman,43,Customer,79543,32.71433,-100.407773,2020-01-27
147,Fletcher Fiorillo,43,Customer,11752,40.757114,-73.174012,2020-01-15
148,Josue Judd,47,Customer,35765,34.690313,-85.814085,2020-01-21
149,Clair Carreira,38,Customer,60101,41.930512,-88.017821,2020-01-06
150,Kyoko Kimbrell,46,Customer,27958,36.484298,-76.13835,2020-01-28